[
  {
    "date": "2025/12/31",
    "name": "温州大麓青年音乐节",
    "latitude": 27.974852,
    "longitude": 120.584546
  },
  {
    "date": "2025/12/12",
    "name": "西风灯塔",
    "latitude": 34.285701,
    "longitude": 108.971559
  },
  {
    "date": "2025/11/14",
    "name": "山之赞",
    "latitude": 22.933227,
    "longitude": 113.220213
  },
  {
    "date": "2025/10/26",
    "name": "暗河显影",
    "latitude": 30.467896,
    "longitude": 104.070483
  },
  {
    "date": "2025/10/25",
    "name": "活水四周年",
    "latitude": 39.050327,
    "longitude": 117.049446
  },
  {
    "date": "2025/10/18",
    "name": "2025奥森计划蹦",
    "latitude": 39.99426,
    "longitude": 116.393693
  },
  {
    "date": "2025/08/31",
    "name": "山海经·南京",
    "latitude": 31.971781,
    "longitude": 118.763533
  },
  {
    "date": "2025/08/30",
    "name": "山海经·杭州",
    "latitude": 30.325801,
    "longitude": 120.13801
  },
  {
    "date": "2025/08/29",
    "name": "山海经·上海",
    "latitude": 31.248956,
    "longitude": 121.43994
  },
  {
    "date": "2025/08/23",
    "name": "石家庄草莓音乐节",
    "latitude": 37.958474,
    "longitude": 114.401252
  },
  {
    "date": "2025/08/16",
    "name": "仙游",
    "latitude": 29.441592,
    "longitude": 107.708457
  },
  {
    "date": "2025/06/29",
    "name": "MTA天漠音乐节",
    "latitude": 40.321699,
    "longitude": 115.607771
  },
  {
    "date": "2025/06/22",
    "name": "灯塔十周年",
    "latitude": 29.886565,
    "longitude": 121.484188
  },
  {
    "date": "2025/06/15",
    "name": "壹车演出一周年",
    "latitude": 39.57295,
    "longitude": 116.27468
  },
  {
    "date": "2025/06/06",
    "name": "FAZI World Tour II Fribourg",
    "latitude": 46.79856,
    "longitude": 7.1545
  },
  {
    "date": "2025/06/05",
    "name": "FAZI World Tour II Aarau",
    "latitude": 47.39298,
    "longitude": 8.04502
  },
  {
    "date": "2025/06/04",
    "name": "FAZI World Tour II Cassano d'Adda",
    "latitude": 45.54764,
    "longitude": 9.43651
  },
  {
    "date": "2025/06/03",
    "name": "FAZI World Tour II Torino",
    "latitude": 45.06365,
    "longitude": 7.67923
  },
  {
    "date": "2025/06/01",
    "name": "FAZI World Tour II Barcelona",
    "latitude": 41.37919,
    "longitude": 2.15508
  },
  {
    "date": "2025/05/30",
    "name": "FAZI World Tour II Paris",
    "latitude": 48.835518,
    "longitude": 2.37671
  },
  {
    "date": "2025/05/27",
    "name": "FAZI World Tour II Mainz",
    "latitude": 49.99254,
    "longitude": 8.26331
  },
  {
    "date": "2025/05/25",
    "name": "FAZI World Tour II Bristol",
    "latitude": 51.48125,
    "longitude": -2.58335
  },
  {
    "date": "2025/05/24",
    "name": "FAZI World Tour II London",
    "latitude": 51.52568,
    "longitude": -0.09429
  },
  {
    "date": "2025/05/23",
    "name": "FAZI World Tour II Manchester",
    "latitude": 53.47569,
    "longitude": -2.23711
  },
  {
    "date": "2025/05/21",
    "name": "FAZI World Tour II Cologne",
    "latitude": 50.93399,
    "longitude": 6.94778
  },
  {
    "date": "2025/05/20",
    "name": "FAZI World Tour II Berlin",
    "latitude": 52.53217,
    "longitude": 13.50571
  },
  {
    "date": "2025/05/18",
    "name": "FAZI World Tour II Hamburg",
    "latitude": 53.54686,
    "longitude": 9.96374
  },
  {
    "date": "2025/05/17",
    "name": "FAZI World Tour II Jena",
    "latitude": 50.92763,
    "longitude": 11.58945
  },
  {
    "date": "2025/05/16",
    "name": "FAZI World Tour II Amsterdam",
    "latitude": 52.36215,
    "longitude": 4.88381
  },
  {
    "date": "2025/04/23",
    "name": "自游聲长",
    "latitude": 30.705773,
    "longitude": 104.106025
  },
  {
    "date": "2025/04/12",
    "name": "SYNCHRONICITYI'25",
    "latitude": 35.66,
    "longitude": 139.7
  },
  {
    "date": "2025/04/11",
    "name": "SYNCHRONICITYI'25 Pre-Party",
    "latitude": 35.6586,
    "longitude": 139.6955
  },
  {
    "date": "2025/03/30",
    "name": "VOX 20周年",
    "latitude": 30.501851,
    "longitude": 114.407194
  },
  {
    "date": "2025/03/29",
    "name": "莱福岛生活节",
    "latitude": 30.13411,
    "longitude": 120.14066
  },
  {
    "date": "2025/03/22",
    "name": "CAN音乐节",
    "latitude": 30.003957,
    "longitude": 122.409635
  },
  {
    "date": "2025/03/16",
    "name": "FAZI World Tour II 沈阳",
    "latitude": 41.81155,
    "longitude": 123.350707
  },
  {
    "date": "2025/03/15",
    "name": "FAZI World Tour II 大连",
    "latitude": 38.875017,
    "longitude": 121.558772
  },
  {
    "date": "2025/03/14",
    "name": "FAZI World Tour II 太原",
    "latitude": 37.86084,
    "longitude": 112.54129
  },
  {
    "date": "2025/03/09",
    "name": "FAZI World Tour II 呼和浩特",
    "latitude": 40.820941,
    "longitude": 111.727684
  },
  {
    "date": "2025/03/08",
    "name": "FAZI World Tour II 银川",
    "latitude": 38.067512,
    "longitude": 106.334189
  },
  {
    "date": "2025/03/07",
    "name": "FAZI World Tour II 兰州",
    "latitude": 36.05765,
    "longitude": 103.78743
  },
  {
    "date": "2025/01/11",
    "name": "澄迈漓岛音乐节",
    "latitude": 19.72654,
    "longitude": 110.01211
  }
]
